{"displayFieldName":"NAME","fieldAliases":{"OBJECTID":"OBJECTID","NAME":"NAME","TELEPHONE":"TELEPHONE","ADDRESS":"ADDRESS","CITY":"CITY","ZIP":"ZIP","WEB_URL":"WEB_URL","USNG":"USNG","GlobalID":"GlobalID"},"geometryType":"esriGeometryPoint","spatialReference":{"wkid":26915,"latestWkid":26915},"fields":[{"name":"OBJECTID","type":"esriFieldTypeOID","alias":"OBJECTID"},{"name":"NAME","type":"esriFieldTypeString","alias":"NAME","length":50},{"name":"TELEPHONE","type":"esriFieldTypeString","alias":"TELEPHONE","length":12},{"name":"ADDRESS","type":"esriFieldTypeString","alias":"ADDRESS","length":50},{"name":"CITY","type":"esriFieldTypeString","alias":"CITY","length":20},{"name":"ZIP","type":"esriFieldTypeString","alias":"ZIP","length":5},{"name":"WEB_URL","type":"esriFieldTypeString","alias":"WEB_URL","length":50},{"name":"USNG","type":"esriFieldTypeString","alias":"USNG","length":15},{"name":"GlobalID","type":"esriFieldTypeGlobalID","alias":"GlobalID","length":38}],"features":[{"attributes":{"OBJECTID":38,"NAME":"Bloomington Police Department","TELEPHONE":"952-563-4900","ADDRESS":"1800 West Old Shakopee Road","CITY":"Bloomington","ZIP":"55431","WEB_URL":"https://www.bloomingtonmn.gov/","USNG":"15TVK7610163509","GlobalID":"{7064611D-843E-4021-854C-2D7E31896F39}"},"geometry":{"x":476101.36050000042,"y":4963508.5566000007}},{"attributes":{"OBJECTID":39,"NAME":"Brooklyn Center Police Department","TELEPHONE":"763-569-3333","ADDRESS":"6645 Humbolt Ave North","CITY":"Brooklyn Center","ZIP":"55430","WEB_URL":"http://http://www.cityofbrooklyncenter.org/","USNG":"15TVK7634291542","GlobalID":"{D13B1DBE-073F-43F5-8F65-071B3BC23D43}"},"geometry":{"x":476341.66530000046,"y":4991541.8655999992}},{"attributes":{"OBJECTID":40,"NAME":"Brooklyn Park Police North Precinct","TELEPHONE":"763-493-8222","ADDRESS":"5400 85th Avenue North","CITY":"Brooklyn Park","ZIP":"55443","WEB_URL":"http://www.brooklynpark.org/","USNG":"15TVK7248695225","GlobalID":"{EF5E9B33-6F3A-4A1A-881B-D9C497B0EEA7}"},"geometry":{"x":472486.15629999992,"y":4995224.5302000009}},{"attributes":{"OBJECTID":41,"NAME":"Champlin Police Department","TELEPHONE":"763-421-2971","ADDRESS":"11955 Champlin Drive","CITY":"Champlin","ZIP":"55316","WEB_URL":"http://ci.champlin.mn.us/","USNG":"15TVL6899902101","GlobalID":"{AB5BAC85-B01B-4EFE-B39D-6FE3362C22F0}"},"geometry":{"x":468999.09939999972,"y":5002100.7700999994}},{"attributes":{"OBJECTID":42,"NAME":"Corcoran Police Department","TELEPHONE":"763-420-8966","ADDRESS":"8200 County Road 116","CITY":"Corcoran","ZIP":"55340","WEB_URL":"http://www.ci.corcoran.mn.us/","USNG":"15TVK5735594553","GlobalID":"{2B8C6F65-9F80-4A2F-BBAA-FFE2DBFB6FD8}"},"geometry":{"x":457354.91980000027,"y":4994552.6291000005}},{"attributes":{"OBJECTID":43,"NAME":"Crystal Police Department","TELEPHONE":"763-531-1014","ADDRESS":"4141 Douglas Drive","CITY":"Crystal","ZIP":"55422","WEB_URL":"http://www.ci.crystal.mn.us/","USNG":"15TVK7159786571","GlobalID":"{00FEFDE4-5D77-4B6C-9CDD-0FFE0CC6CD98}"},"geometry":{"x":471596.65469999984,"y":4986571.3300000001}},{"attributes":{"OBJECTID":44,"NAME":"Dayton Police Department","TELEPHONE":"763-427-2017","ADDRESS":"12260 South Diamond Lake Road","CITY":"Dayton","ZIP":"55327","WEB_URL":"http://www.cityofdaytonmn.com/","USNG":"15TVL6566305196","GlobalID":"{21E3D835-2432-4227-89EF-7FBD041A5844}"},"geometry":{"x":465662.51290000044,"y":5005195.6557999998}},{"attributes":{"OBJECTID":45,"NAME":"Deephaven Police Department","TELEPHONE":"952-474-7555","ADDRESS":"20225 Cottagewood Road","CITY":"Deephaven","ZIP":"55331","WEB_URL":"http://www.cityofdeephaven.org/","USNG":"15TVK5762174498","GlobalID":"{D5311B9C-DD21-4AB5-B6D5-94AA62692F33}"},"geometry":{"x":457620.61340000015,"y":4974498.3603000008}},{"attributes":{"OBJECTID":46,"NAME":"Eden Prairie Police Department","TELEPHONE":"952-949-6200","ADDRESS":"8080 Mitchell Road","CITY":"Eden Prairie","ZIP":"55344","WEB_URL":"http://www.edenprairie.org/","USNG":"15TVK6350267082","GlobalID":"{0CA8E23B-B308-4EBE-BCAA-D3AF51C9DAE8}"},"geometry":{"x":463501.6595999999,"y":4967081.8264000006}},{"attributes":{"OBJECTID":47,"NAME":"Edina Police Department","TELEPHONE":"952-826-1610","ADDRESS":"4801 West 50th Street","CITY":"Edina","ZIP":"55424","WEB_URL":"http://edinamn.gov/","USNG":"15TVK7256373114","GlobalID":"{500F6404-B90B-445B-A983-B0C2E70A5C99}"},"geometry":{"x":472562.85240000021,"y":4973113.6305999998}},{"attributes":{"OBJECTID":48,"NAME":"Golden Valley Police Department","TELEPHONE":"763-593-8079","ADDRESS":"7800 Golden Valley Road","CITY":"Golden Valley","ZIP":"55427","WEB_URL":"http://www.goldenvalleymn.gov","USNG":"15TVK7016481522","GlobalID":"{A1E45482-130E-4D38-883E-81387CAFFA29}"},"geometry":{"x":470164.03199999966,"y":4981522.3237999994}},{"attributes":{"OBJECTID":49,"NAME":"Hennepin County Patrol Division","TELEPHONE":"612-348-3744","ADDRESS":"9401 83rd Avenue North","CITY":"Brooklyn Park","ZIP":"55445","WEB_URL":"http://www.hennepinsheriff.org","USNG":"15TVK6857894624","GlobalID":"{B00AC1AA-F722-468C-98D6-D649D9770124}"},"geometry":{"x":468578.20679999981,"y":4994623.7134000007}},{"attributes":{"OBJECTID":50,"NAME":"Hopkins Police Department","TELEPHONE":"952-938-8885","ADDRESS":"1010 First Street South","CITY":"Hopkins","ZIP":"55343","WEB_URL":"http://www.hopkinsmn.com/","USNG":"15TVK6735374340","GlobalID":"{DAA0D7C0-2BED-4BA7-99DA-BCDAEF836F18}"},"geometry":{"x":467353.40589999966,"y":4974340.4864000008}},{"attributes":{"OBJECTID":51,"NAME":"Maple Grove Police Department","TELEPHONE":"763-494-6100","ADDRESS":"12800 Arbor Lakes Parkway North","CITY":"Maple Grove","ZIP":"55369","WEB_URL":"http://www.maplegrovemn.gov","USNG":"15TVK6522394050","GlobalID":"{301D705C-9FE8-406D-8940-D6200984AC41}"},"geometry":{"x":465223.32529999968,"y":4994049.5225000009}},{"attributes":{"OBJECTID":52,"NAME":"Medina Police Department","TELEPHONE":"763-473-9209","ADDRESS":"600 Clydesdale Trail","CITY":"Medina","ZIP":"55340","WEB_URL":"http://medinamn.us","USNG":"15TVK5764988348","GlobalID":"{782B86A2-8C2B-4EA9-91E6-A802D3E036A0}"},"geometry":{"x":457649.18769999966,"y":4988348.2028000001}},{"attributes":{"OBJECTID":53,"NAME":"Metro Transit Police","TELEPHONE":"612-349-7200","ADDRESS":"2425 Minnehaha Avenue","CITY":"Minneapolis","ZIP":"55404","WEB_URL":"http://www.metrotransit.org/","USNG":"15TVK8102278354","GlobalID":"{70FEC02F-4B9F-4144-94E4-84308E3BB117}"},"geometry":{"x":481021.97620000038,"y":4978353.7753999997}},{"attributes":{"OBJECTID":54,"NAME":"Minneapolis Park Police","TELEPHONE":"612-230-6550","ADDRESS":"2117 West River Road North","CITY":"Minneapolis","ZIP":"55411","WEB_URL":"http://www.minneapolisparks.org/","USNG":"15TVK7809883055","GlobalID":"{63E70B6A-662F-40A2-ABF0-9BC91BCA2C75}"},"geometry":{"x":478098.02950000018,"y":4983054.6040000003}},{"attributes":{"OBJECTID":55,"NAME":"Minneapolis Police Department","TELEPHONE":"612-673-3559","ADDRESS":"350 5th Street South, Room 130","CITY":"Minneapolis","ZIP":"55415","WEB_URL":"http://www.ci.minneapolis.mn.us/","USNG":"15TVK7906980461","GlobalID":"{99374A16-6D50-4B8F-A28B-2CAD117E3CD7}"},"geometry":{"x":479069.32650000043,"y":4980461.1248000003}},{"attributes":{"OBJECTID":56,"NAME":"Minnetonka Police Department","TELEPHONE":"952-939-8500","ADDRESS":"14600 Minnetonka Boulevard","CITY":"Minnetonka","ZIP":"55345","WEB_URL":"http://www.eminnetonka.com/","USNG":"15TVK6329176398","GlobalID":"{AD828FC7-F587-4B56-8BCF-D7B56BD1A7F5}"},"geometry":{"x":463290.82440000027,"y":4976397.9235999994}},{"attributes":{"OBJECTID":57,"NAME":"Mound Police Department","TELEPHONE":"952-472-0621","ADDRESS":"2415 Wilshire Boulevard","CITY":"Mound","ZIP":"55364","WEB_URL":"http://www.cityofmound.com/","USNG":"15TVK4803975861","GlobalID":"{AED4608A-9A72-4576-A7FC-E569AC412B75}"},"geometry":{"x":448038.58729999978,"y":4975861.0887000002}},{"attributes":{"OBJECTID":58,"NAME":"New Hope Police Department","TELEPHONE":"763-531-5170","ADDRESS":"4401 Xylon Avenue North","CITY":"New Hope","ZIP":"55428","WEB_URL":"http://www.ci.new-hope.mn.us/","USNG":"15TVK6961586993","GlobalID":"{E8842F6E-F4C0-4E63-985F-F329D1E4D210}"},"geometry":{"x":469614.97759999987,"y":4986992.7226999998}},{"attributes":{"OBJECTID":59,"NAME":"Osseo Police Department","TELEPHONE":"763-424-5444","ADDRESS":"408 1st Avenue Northwest","CITY":"Osseo","ZIP":"55369","WEB_URL":"http://www.discoverosseo.com","USNG":"15TVK6827596445","GlobalID":"{53FCD046-07EA-48AD-899E-62E3D26811FC}"},"geometry":{"x":468274.8013000004,"y":4996445.1831}},{"attributes":{"OBJECTID":60,"NAME":"Plymouth Police Station","TELEPHONE":"763-509-5160","ADDRESS":"3400 Plymouth Boulevard","CITY":"Plymouth","ZIP":"55447","WEB_URL":"http://plymouthmn.gov","USNG":"15TVK6262885173","GlobalID":"{DEDEFC4F-12FE-4B3E-803F-CC4BC4977455}"},"geometry":{"x":462628.43769999966,"y":4985172.6839000005}},{"attributes":{"OBJECTID":61,"NAME":"Richfield Police Department","TELEPHONE":"612-861-9800","ADDRESS":"6700 Portland Avenue","CITY":"Richfield","ZIP":"55423","WEB_URL":"http://www.ci.richfield.mn.us/","USNG":"15TVK7879169699","GlobalID":"{4AA6F970-FAC4-4DE0-BCB1-C3CEC57D8A72}"},"geometry":{"x":478791.0736999996,"y":4969699.4656000007}},{"attributes":{"OBJECTID":62,"NAME":"Robbinsdale Police Department","TELEPHONE":"763-531-1220","ADDRESS":"4101 Hubbard Avenue North","CITY":"Robbinsdale","ZIP":"55422","WEB_URL":"http://www.ci.robbinsdale.mn.us/","USNG":"15TVK7330086229","GlobalID":"{B5E7B398-CA36-4782-BE82-B4F97C4B18F8}"},"geometry":{"x":473300.45380000025,"y":4986228.9752999991}},{"attributes":{"OBJECTID":63,"NAME":"Rogers Police Department","TELEPHONE":"763-428-3450","ADDRESS":"21860 Industrial Court","CITY":"Rogers","ZIP":"55374","WEB_URL":"http://www.cityofrogers.org/","USNG":"15TVL5623604773","GlobalID":"{B8EC54BC-72B0-4FEC-9B97-358AF7BB2FA9}"},"geometry":{"x":456236.44620000012,"y":5004773.2929999996}},{"attributes":{"OBJECTID":64,"NAME":"South Lake Minnetonka Police Department","TELEPHONE":"952-474-3261","ADDRESS":"24150 Smithtown Road","CITY":"Excelsior","ZIP":"55331","WEB_URL":"http://www.southlakepd.com/","USNG":"15TVK5372972253","GlobalID":"{395C2DE7-62A0-4338-9513-F79FAA04075D}"},"geometry":{"x":453728.65639999975,"y":4972252.9600000009}},{"attributes":{"OBJECTID":65,"NAME":"Saint Anthony Police Department","TELEPHONE":"612-782-3350","ADDRESS":"3301 Silver Lake Road Northeast","CITY":"Saint Anthony","ZIP":"55418","WEB_URL":"http://www.ci.saint-anthony.mn.us/","USNG":"15TVK8288186245","GlobalID":"{B5DDD14B-D976-43A0-9021-9D56323BD2FA}"},"geometry":{"x":482880.75530000031,"y":4986244.6513}},{"attributes":{"OBJECTID":66,"NAME":"Minnetrista Police Department","TELEPHONE":"952-446-1131","ADDRESS":"7701 County Road 110 West","CITY":"Minnetrista","ZIP":"55364","WEB_URL":"http://www.ci.minnetrista.mn.us/","USNG":"15TVK4323674631","GlobalID":"{AAC2882D-BC33-408C-90C2-C7F94D5BB4E5}"},"geometry":{"x":443235.56319999974,"y":4974631.0465999991}},{"attributes":{"OBJECTID":67,"NAME":"Saint Louis Park Police Department","TELEPHONE":"952-924-2600","ADDRESS":"3015 Raleigh Avenue South","CITY":"Saint Louis Park","ZIP":"55416","WEB_URL":"http://www.stlouispark.org/","USNG":"15TVK7291477121","GlobalID":"{7EF12487-52F5-4648-AECD-ACD6D1404DA4}"},"geometry":{"x":472914.37760000024,"y":4977120.8318000007}},{"attributes":{"OBJECTID":68,"NAME":"Three Rivers Park District Police","TELEPHONE":"763-694-7730","ADDRESS":"4301 County Road 24","CITY":"Medina","ZIP":"55359","WEB_URL":"http://www.threeriversparks.org/","USNG":"15TVK5053885340","GlobalID":"{8BF4E1D0-E293-484F-9872-652E0D0C2009}"},"geometry":{"x":450537.79559999984,"y":4985339.5562999994}},{"attributes":{"OBJECTID":69,"NAME":"University of Minnesota Police","TELEPHONE":"612-624-2677","ADDRESS":"511 Washington Avenue Southeast","CITY":"Minneapolis","ZIP":"55455","WEB_URL":"https://police.umn.edu/","USNG":"15TVK8178680079","GlobalID":"{BDA8A260-496D-4639-A80A-DBFA72C52038}"},"geometry":{"x":481786.30190000031,"y":4980078.9554999992}},{"attributes":{"OBJECTID":70,"NAME":"Wayzata Police Department","TELEPHONE":"952-404-5340","ADDRESS":"600 Rice Street East","CITY":"Wayzata","ZIP":"55391","WEB_URL":"http://www.wayzata.org/","USNG":"15TVK5959279889","GlobalID":"{53F2A7AD-E68E-4254-830D-CF1381A66F76}"},"geometry":{"x":459592.18879999965,"y":4979888.6425000001}},{"attributes":{"OBJECTID":71,"NAME":"West Hennepin Public Safety","TELEPHONE":"763-479-0500","ADDRESS":"1918 County Road 90","CITY":"Maple Plain","ZIP":"55359","WEB_URL":"http://www.westhennepin.com/","USNG":"15TVK4595984568","GlobalID":"{2F335DA3-2B9B-4AAE-AE36-F45FA1348BCB}"},"geometry":{"x":445959.21690000035,"y":4984567.5379000008}},{"attributes":{"OBJECTID":72,"NAME":"MSP International Airport Police","TELEPHONE":"612-726-5577","ADDRESS":"4300 Glumack Drive","CITY":"Saint Paul","ZIP":"55111","WEB_URL":"http://www.mspairport.com/","USNG":"15TVK8358269853","GlobalID":"{7754B02E-7643-4F8C-BF81-E3D85F561DA7}"},"geometry":{"x":483581.90149999969,"y":4969853.1079999991}},{"attributes":{"OBJECTID":73,"NAME":"Orono Police Department","TELEPHONE":"952-249-4700","ADDRESS":"2730 Kelley Parkway","CITY":"Orono","ZIP":"55356","WEB_URL":"http://www.ci.orono.mn.us","USNG":"15TVK5324282140","GlobalID":"{831686B9-0284-4550-B707-8CAA3B4CEE07}"},"geometry":{"x":453241.81010000035,"y":4982140.4758000001}},{"attributes":{"OBJECTID":74,"NAME":"Brooklyn Park Police South Precinct","TELEPHONE":"763-493-8222","ADDRESS":"7608 Brooklyn Boulevard","CITY":"Brooklyn Park","ZIP":"55443","WEB_URL":"http://www.brooklynpark.org/","USNG":"15TVK7214893400","GlobalID":"{7135108C-70AF-4B8A-A3D1-86CE56BBB8F0}"},"geometry":{"x":472148.49509999994,"y":4993400.2782000005}},{"attributes":{"OBJECTID":75,"NAME":"Minneapolis Police 1st Precinct","TELEPHONE":"612-673-5701","ADDRESS":"19 4th Street North","CITY":"Minneapolis","ZIP":"55401","WEB_URL":"http://www.ci.minneapolis.mn.us/","USNG":"15TVK7847080918","GlobalID":"{16E85A28-0CB0-448E-AD5F-218E31FBFC68}"},"geometry":{"x":478469.9523,"y":4980918.2182999998}},{"attributes":{"OBJECTID":76,"NAME":"Minneapolis Police 2nd Precinct","TELEPHONE":"612-673-5702","ADDRESS":"1911 Central Avenue N.E","CITY":"Minneapolis","ZIP":"55418","WEB_URL":"http://www.ci.minneapolis.mn.us/","USNG":"15TVK8056983883","GlobalID":"{6505B070-89EB-42F5-8BE9-685261E4B087}"},"geometry":{"x":480569.36730000004,"y":4983883.0667000003}},{"attributes":{"OBJECTID":77,"NAME":"Minneapolis Police 3rd Precinct","TELEPHONE":"612-673-5703","ADDRESS":"3000 Minnehaha Avenue South","CITY":"Minneapolis","ZIP":"55406","WEB_URL":"http://www.ci.minneapolis.mn.us/","USNG":"15TVK8147777208","GlobalID":"{8B9122D1-CFEE-4075-BF32-B0F882D77481}"},"geometry":{"x":481476.60709999967,"y":4977208.3421}},{"attributes":{"OBJECTID":78,"NAME":"Minneapolis Police 4th Precinct","TELEPHONE":"612-673-5704","ADDRESS":"1925 Plymouth Avenue North","CITY":"Minneapolis","ZIP":"55411","WEB_URL":"http://www.ci.minneapolis.mn.us/","USNG":"15TVK7594982023","GlobalID":"{2B7103B4-1A1F-4E9A-AD02-699D65A5036F}"},"geometry":{"x":475949.09339999966,"y":4982023.0184000004}},{"attributes":{"OBJECTID":79,"NAME":"Minneapolis Police 5th Precinct","TELEPHONE":"612-673-5705","ADDRESS":"3101 Nicollet Avenue","CITY":"Minneapolis","ZIP":"55408","WEB_URL":"http://www.ci.minneapolis.mn.us/","USNG":"15TVK7810277009","GlobalID":"{98190954-525C-4FF1-9046-FE8CE79F1C24}"},"geometry":{"x":478101.52550000045,"y":4977009.0485999994}},{"attributes":{"OBJECTID":80,"NAME":"Minnesota State Patrol West Metro District","TELEPHONE":"763-591-4680","ADDRESS":"2005 Lilac Drive North","CITY":"Golden Valley","ZIP":"55422","WEB_URL":"https://dps.mn.gov/","USNG":"15TVK7228682968","GlobalID":"{1374D574-BC39-4848-B891-B914F4971777}"},"geometry":{"x":472285.8049999997,"y":4982967.8515000008}}]}